"sourcedb"	"site"	"idf"	"labcode"	"lon"	"lat"	"period"	"median"	"ID"	"code"
"neonetatl"	"Cabranosa"	33	"Sac-1321"	-8.9666	37.0471	"EN"	-5812	33	"Csa"
"neonet"	"Defensola"	110	"UTC-1342"	16.155946	41.897824	"EN"	-5867	110	"Csa"
"neonet"	"Gospodska"	135	"Z-579"	16.7537	43.1343	"EN"	-5884	135	"Csa"
"neonet"	"Kronio"	152	"LTL-211A"	13.08	37.51	"EN"	-5870	152	"BSk"
"neonet"	"Peiro Signado"	204	"Ly-5689(SacA-13451)"	3.32891	43.3083	"EN"	-5801	204	"Csa"
"neonet"	"Piana di Curinga"	208	"P-2946"	16.298682	38.83539	"EN"	-5811	208	"Csa"
"neonet"	"Pollera"	214	"MC-756"	8.314602	44.200546	"EN"	-5834	214	"Cfa"
"neonet"	"Scaramella di San vito"	255	"R-350"	15.637926	41.710877	"EN"	-5875	255	"Csa"
"neonet"	"Trasano"	269	"Ly-3955(OxA)"	16.636111	40.675555	"EN"	-5809	269	"Csa"
