"sourcedb"	"site"	"idf"	"labcode"	"lon"	"lat"	"period"	"median"	"ID"	"code"
"neonet"	"Abri des Castelli"	3	"Beta-332596"	9.033342	42.255492	"EN"	-5588	3	"Csb"
"neonet"	"Abric de la Falguera"	4	"Beta-142289"	-0.5881	38.6662	"EN"	-5462	4	"BSk"
"neonet"	"Abrigo de Mendandia"	12	"GrN-22741"	-2.596431	42.717506	"EN"	-5500	12	"Csb"
"neonetatl"	"Almonda (Galeria da Cisterna)"	18	"OxA-9287"	-8.3648	39.3013	"EN"	-5411	18	"Csa"
"neonet"	"Arma dello Stefanin"	20	"Bln-3276"	8.0021	44.1044	"EN"	-5549	20	"Cfa"
"neonet"	"Arma di Nasino"	21	"R-313"	8.03115	44.112705	"EN"	-5390	21	"Cfa"
"neonet"	"Balma Margineda"	24	"Beta-398960"	1.487	42.4824	"EN"	-5598	24	"Csb"
"neonet"	"Baratin"	25	"Ly-4725"	4.8526	44.09385	"EN"	-5328	25	"Csa"
"agrichange"	"Blachettes Sud"	26	"Ly-2794"	0.503886111	40.82166667	"EN"	-5354	26	"Csa"
"agrichange"	"Bonica"	27	"OxA-23440"	1.932166	41.387861	"EN"	-5633	27	"Csa"
"neonetatl"	"Cabranosa"	31	"Sac-1321"	-8.9666	37.0471	"EN"	-5812	31	"Csa"
"neonetatl"	"Caldeirão"	32	"Wk-38578"	-8.2454	39.3854	"EN"	-5416	32	"Csa"
"agrichange"	"Can Roqueta"	35	"Beta-189076"	2.13049975470855	41.539613	"EN"	-5374	35	"Cfa"
"neonet"	"Can Sadurni"	36	"OxA-15488"	1.912258	41.345381	"EN"	-5400	36	"Csa"
"neonet"	"Cap Ragnon"	38	"Ly-4173(SacA-7430)"	5.25	43.367	"EN"	-5420	38	NA
"neonetatl"	"Casa Montero"	40	"Beta-206512"	-3.526404	40.40427	"EN"	-5386	40	"BSk"
"neonetatl"	"Clos des Poujol"	48	"Ly-2670 (GrA)"	3.0636	44.38473	"EN"	-5542	48	"Cfb"
"neonet"	"Correge-Leucate"	51	"MC-788"	3.0507	42.8958	"EN"	-5697	51	NA
"neonetatl"	"Correio-Mor"	52	"ICEN-1099"	-9.1137	38.4936	"EN"	-5324	52	NA
"neonet"	"Cova Fosca"	58	"Beta-149009"	-0.13224	40.45999	"EN"	-5363	58	"Csa"
"neonet"	"Cova Fosca Vall Ebo"	59	"OxA-26047"	-0.163287	38.800601	"EN"	-5391	59	"BSk"
"neonet"	"Cova Freda de Montserrat"	60	"Beta-508800"	1.832708	41.57355	"EN"	-5385	60	"Csa"
"neonet"	"Cova Gran de Montserrat"	62	"Beta-508799"	1.831669	41.573736	"EN"	-5350	62	"Csa"
"calpal"	"Cova de l'Or"	64	"Beta-136677"	-0.364154	38.84465	"EN"	-5787	64	"BSk"
"neonet"	"Cova de la Sarsa"	66	"OxA-26076"	-0.58196	38.756766	"EN"	-5434	66	"BSk"
"neonet"	"Cova de les Cendres"	67	"Beta-75220"	0.152631	38.685691	"EN"	-5642	67	NA
"neonet"	"Cova del Toll"	69	"OxA-26071"	2.150441	41.805629	"EN"	-5361	69	"Cfa"
"neonet"	"Cova en Pardo"	72	"Beta-231880"	-0.297931	38.814485	"EN"	-5580	72	"BSk"
"neonet"	"Cueva Lobrica"	76	"CNA-4611.1.1"	0.100692	42.515372	"EN"	-5386	76	"Dsb"
"neonet"	"Cueva de Chaves"	78	"GrN-12683"	-0.15	42.2255	"EN"	-5575	78	"Csa"
"neonetatl"	"Cueva de La Vaquera"	79	"GrA-9226"	-4.060954	41.08505	"EN"	-5407	79	"BSk"
"neonet"	"Cueva de Nerja"	82	"Birm-1113"	-3.844529	36.762871	"EN"	-5867	82	"BSk"
"neonet"	"Cueva de la Serreta"	85	"Beta-280862"	1.719751	41.324445	"EN"	-5425	85	"Csa"
"neonetatl"	"Cueva de la Ventana"	86	"Beta-166231"	-3.543984	40.82863	"EN"	-5322	86	"Csa"
"neonetatl"	"Cueva del Mirador"	92	"Beta-197385"	-3.525716	42.33992	"EN"	-5322	92	"Csb"
"neonet"	"El Barranquet"	94	"Beta-221431"	0.005865	38.854996	"EN"	-5462	94	NA
"neonet"	"El Cavet"	96	"Beta-222342"	1.071025	41.076358	"EN"	-5555	96	"Csa"
"neonetatl"	"Encosta de Sant'Ana"	98	"Sac-2004"	-9.137902	38.71563	"EN"	-5769	98	"Csa"
"neonet"	"Fem"	101	"Beta-42867"	0.867881	41.302597	"EN"	-5774	101	"Csa"
"neonet"	"Font del Ros"	103	"AA-16498"	1.845261	42.09765	"EN"	-5519	103	"Cfb"
"neonet"	"Font-Juvenal"	104	"Gif-7029"	2.342367	43.29709	"EN"	-5374	104	"Cfa"
"neonet"	"Font-des-Pigeons"	105	"MC-2515"	5.1667	43.3834	"EN"	-5792	105	NA
"neonet"	"Fontbregoua"	106	"Gif-2990"	6.23231	43.5637	"EN"	-5616	106	"Cfb"
"neonet"	"Gazel"	109	"GrN-6702"	2.421154	43.325325	"EN"	-5795	109	"Cfa"
"bda"	"Gritulu"	110	"LYON-824"	9.425046	42.89037	"EN"	-5723	110	NA
"neonet"	"Grotta Corbeddu"	111	"UtC-1251"	9.48634	40.255253	"EN"	-5605	111	"Csa"
"neonet"	"Grotta Filiestru"	112	"Q-3020"	8.651545	40.453804	"EN"	-5625	112	"Csa"
"neonet"	"Guixeres de Vilobi"	116	"OxA-26068"	1.665863	41.382693	"EN"	-5577	116	"Csa"
"medafricarbon"	"Kaf Taht el Ghar"	119	"Beta-409693"	-5.431	35.4965	"EN"	-5385	119	"Csa"
"neonetatl"	"La Carigüela"	121	"Beta-141150"	-3.431582	37.44239	"EN"	-5796	121	"Csa"
"neonet"	"La Draga"	122	"UBAR-314"	2.758536	42.126877	"EN"	-5380	122	"Cfa"
"neonet"	"La Lampara"	123	"KIA-16579"	-2.512798	41.190069	"EN"	-5548	123	"Csa"
"neonet"	"La Resclauze"	124	"MC-1227"	3.2667	43.5	"EN"	-5407	124	"Csa"
"neonetatl"	"Lapiás das Lameiras"	126	"OxA-29109"	-9.343528	38.84653	"EN"	-5426	126	"Csa"
"neonet"	"Los Cascajos"	131	"Ua-24428"	-2.1892	42.5373	"EN"	-5406	131	"Csb"
"neonet"	"Mas Is"	133	"Beta-162092"	-0.582689	38.760273	"EN"	-5543	133	"BSk"
"neonet"	"Montclus"	137	"KN-1181"	4.43047	44.26473	"EN"	-5567	137	"Cfa"
"neonet"	"Oullins"	141	"ETH-27972"	4.456943	44.342326	"EN"	-5463	141	"Cfa"
"neonet"	"Peiro Signado"	144	"Ly-5689(SacA-13451)"	3.32891	43.3083	"EN"	-5801	144	"Csa"
"neonet"	"Pendimoun"	145	"Gif-A101334"	7.505944	43.812212	"EN"	-5689	145	NA
"neonet"	"Pont de Roque-Haute"	148	"Ly-7625"	3.36003	43.2927	"EN"	-5970	148	"Csa"
"neonet"	"Pza. Vila Madrid"	151	"Beta-18271"	2.172524	41.384281	"EN"	-5410	151	NA
"neonet"	"Renaghju"	152	"Ly-8327"	8.92148	41.52652	"EN"	-5485	152	NA
"neonet"	"Revilla del Campo"	153	"KIA-13940"	-2.549566	41.17593	"EN"	-5521	153	"Csa"
"neonetatl"	"Ribeira de Alcantarilha"	154	"Wk-6851"	-8.3447	37.1271	"EN"	-5503	154	"Csa"
"neonet"	"Roc du Dourgne"	156	"MC-1104"	2.0879	42.7607	"EN"	-5422	156	"Cfb"
"neonet"	"Ronze"	158	"Ly-6083"	4.404267	44.318435	"EN"	-5555	158	"Cfa"
"agrichange"	"Sant Llorenc"	160	"Beta-311606"	1.831924	41.252455	"EN"	-5659	160	"Csa"
"neonet"	"Sant Pau del Camp"	161	"Beta-407495"	2.169751	41.375989	"EN"	-5533	161	NA
"neonetatl"	"Senhora da Alegria"	162	"Beta-339602"	-8.2346	40.0751	"EN"	-5350	162	"Csa"
"neonet"	"Su Carroppu"	164	"Ly-3012"	8.549996	39.196373	"EN"	-5405	164	"Csa"
"neonet"	"Su Coloru"	165	"Beta-167931"	8.712183	40.661832	"EN"	-5720	165	"Csa"
"neonet"	"Tumul del Padro"	168	"ICEN-873"	-3.11	42.63	"EN"	-5502	168	"Csb"
"neonetatl"	"Valada do Mato"	170	"GrA-18298"	-7.9902777	38.60806	"EN"	-5485	170	"Csa"
"neonetatl"	"Vale Marim I"	173	"Beta-417015"	-8.806815	37.9302	"EN"	-5908	173	"Csa"
"neonetatl"	"Vale Pincel I"	174	"Beta-164664"	-8.844087	37.94075	"EN"	-5652	174	"Csa"
"neonetatl"	"Vidigal"	176	"Ly-4695"	-8.7799	37.8263	"EN"	-5568	176	"Csa"
"neonet"	"Vinya en Pau"	178	"CNA-2488.1.1"	1.699466	41.344905	"EN"	-5386	178	"Csa"
