"sourcedb"	"site"	"idf"	"labcode"	"lon"	"lat"	"period"	"median"	"ID"	"code"
"neonet"	"Abri des Castelli"	3	"Beta-332596"	9.033342	42.255492	"EN"	-5588	3	"Csb"
"neonet"	"Abric de la Falguera"	4	"Beta-142289"	-0.5881	38.6662	"EN"	-5462	4	"BSk"
"neonet"	"Abrigo de Mendandia"	12	"GrN-22741"	-2.596431	42.717506	"EN"	-5500	12	"Csb"
"neonetatl"	"Almonda (Galeria da Cisterna)"	18	"OxA-9287"	-8.3648	39.3013	"EN"	-5411	18	"Csa"
"neonet"	"Arma dello Stefanin"	20	"Bln-3276"	8.0021	44.1044	"EN"	-5549	20	"Cfa"
"neonet"	"Arma di Nasino"	21	"R-313"	8.03115	44.112705	"EN"	-5390	21	"Cfa"
"neonet"	"Balma Margineda"	24	"Beta-398960"	1.487	42.4824	"EN"	-5598	24	"Csb"
"neonet"	"Baratin"	25	"Ly-4725"	4.8526	44.09385	"EN"	-5328	25	"Csa"
"agrichange"	"Blachettes Sud"	26	"Ly-2794"	0.503886111	40.82166667	"EN"	-5354	26	"Csa"
"agrichange"	"Bonica"	27	"OxA-23440"	1.932166	41.387861	"EN"	-5633	27	"Csa"
"neonetatl"	"Cabranosa"	31	"Sac-1321"	-8.9666	37.0471	"EN"	-5812	31	"Csa"
"neonetatl"	"Caldeirão"	32	"Wk-38578"	-8.2454	39.3854	"EN"	-5416	32	"Csa"
"bda"	"Can Roqueta"	35	"Beta-x1"	2.103195	41.547773	"EN"	-5374	35	"Cfa"
"agrichange"	"Can Roqueta II"	36	"Beta-189076"	2.13049975470855	41.539613	"EN"	-5374	36	"Cfa"
"neonet"	"Can Sadurni"	37	"OxA-15488"	1.912258	41.345381	"EN"	-5400	37	"Csa"
"neonet"	"Cap Ragnon"	39	"Ly-4173(SacA-7430)"	5.25	43.367	"EN"	-5420	39	NA
"neonetatl"	"Casa Montero"	41	"Beta-206512"	-3.526404	40.40427	"EN"	-5386	41	"BSk"
"neonetatl"	"Clos des Poujol"	49	"Ly-2670 (GrA)"	3.0636	44.38473	"EN"	-5542	49	"Cfb"
"neonet"	"Correge-Leucate"	52	"MC-788"	3.0507	42.8958	"EN"	-5697	52	NA
"neonetatl"	"Correio-Mor"	53	"ICEN-1099"	-9.1137	38.4936	"EN"	-5324	53	NA
"neonet"	"Cova Fosca"	59	"Beta-149009"	-0.13224	40.45999	"EN"	-5363	59	"Csa"
"neonet"	"Cova Fosca Vall Ebo"	60	"OxA-26047"	-0.163287	38.800601	"EN"	-5391	60	"BSk"
"neonet"	"Cova Freda de Montserrat"	61	"Beta-508800"	1.832708	41.57355	"EN"	-5385	61	"Csa"
"neonet"	"Cova Gran de Montserrat"	63	"Beta-508799"	1.831669	41.573736	"EN"	-5350	63	"Csa"
"calpal"	"Cova de l'Or"	65	"Beta-136677"	-0.364154	38.84465	"EN"	-5787	65	"BSk"
"neonet"	"Cova de la Sarsa"	67	"OxA-26076"	-0.58196	38.756766	"EN"	-5434	67	"BSk"
"neonet"	"Cova de les Cendres"	68	"Beta-75220"	0.152631	38.685691	"EN"	-5642	68	NA
"neonet"	"Cova del Toll"	70	"OxA-26071"	2.150441	41.805629	"EN"	-5361	70	"Cfa"
"neonet"	"Cova en Pardo"	73	"Beta-231880"	-0.297931	38.814485	"EN"	-5580	73	"BSk"
"neonet"	"Cueva Lobrica"	77	"CNA-4611.1.1"	0.100692	42.515372	"EN"	-5386	77	"Dsb"
"neonetatl"	"Cueva de Carigüela"	79	"Beta-141150"	-3.431582	37.44239	"EN"	-5796	79	"Csa"
"neonet"	"Cueva de Chaves"	80	"GrN-12683"	-0.15	42.2255	"EN"	-5575	80	"Csa"
"neonetatl"	"Cueva de La Vaquera"	81	"GrA-9226"	-4.060954	41.08505	"EN"	-5407	81	"BSk"
"neonet"	"Cueva de Nerja"	84	"Birm-1113"	-3.844529	36.762871	"EN"	-5867	84	"BSk"
"neonet"	"Cueva de la Serreta"	87	"Beta-280862"	1.719751	41.324445	"EN"	-5425	87	"Csa"
"neonetatl"	"Cueva de la Ventana"	88	"Beta-166231"	-3.543984	40.82863	"EN"	-5322	88	"Csa"
"neonetatl"	"Cueva del Mirador"	94	"Beta-197385"	-3.525716	42.33992	"EN"	-5322	94	"Csb"
"neonet"	"El Barranquet"	96	"Beta-221431"	0.005865	38.854996	"EN"	-5462	96	NA
"neonet"	"El Cavet"	98	"Beta-222342"	1.071025	41.076358	"EN"	-5555	98	"Csa"
"neonetatl"	"Encosta de Sant'Ana"	100	"Sac-2004"	-9.137902	38.71563	"EN"	-5769	100	"Csa"
"neonet"	"Fem"	103	"Beta-42867"	0.867881	41.302597	"EN"	-5774	103	"Csa"
"neonet"	"Font del Ros"	105	"AA-16498"	1.845261	42.09765	"EN"	-5519	105	"Cfb"
"neonet"	"Font-Juvenal"	106	"Gif-7029"	2.342367	43.29709	"EN"	-5374	106	"Cfa"
"neonet"	"Font-des-Pigeons"	107	"MC-2515"	5.1667	43.3834	"EN"	-5792	107	NA
"neonet"	"Fontbregoua"	108	"Gif-2990"	6.23231	43.5637	"EN"	-5616	108	"Cfb"
"bda"	"Forcas II"	109	"Beta-247405"	0.3402435	42.184362	"EN"	-5652	109	"Csa"
"neonet"	"Gazel"	112	"GrN-6702"	2.421154	43.325325	"EN"	-5795	112	"Cfa"
"bda"	"Gritulu"	113	"LYON-824"	9.425046	42.89037	"EN"	-5723	113	NA
"neonet"	"Grotta Corbeddu"	114	"UtC-1251"	9.48634	40.255253	"EN"	-5605	114	"Csa"
"neonet"	"Grotta Filiestru"	115	"Q-3020"	8.651545	40.453804	"EN"	-5625	115	"Csa"
"neonet"	"Guixeres de Vilobi"	119	"OxA-26068"	1.665863	41.382693	"EN"	-5577	119	"Csa"
"medafricarbon"	"Kaf Taht el Ghar"	122	"Beta-409693"	-5.431	35.4965	"EN"	-5385	122	"Csa"
"neonet"	"La Draga"	124	"UBAR-314"	2.758536	42.126877	"EN"	-5380	124	"Cfa"
"neonet"	"La Lampara"	125	"KIA-16579"	-2.512798	41.190069	"EN"	-5548	125	"Csa"
"neonet"	"La Resclauze"	126	"MC-1227"	3.2667	43.5	"EN"	-5407	126	"Csa"
"neonetatl"	"Lapiás das Lameiras"	128	"OxA-29109"	-9.343528	38.84653	"EN"	-5426	128	"Csa"
"neonet"	"Los Cascajos"	133	"Ua-24428"	-2.1892	42.5373	"EN"	-5406	133	"Csb"
"neonet"	"Mas Is"	135	"Beta-162092"	-0.582689	38.760273	"EN"	-5543	135	"BSk"
"neonet"	"Montclus"	139	"KN-1181"	4.43047	44.26473	"EN"	-5567	139	"Cfa"
"neonet"	"Oullins"	143	"ETH-27972"	4.456943	44.342326	"EN"	-5463	143	"Cfa"
"neonet"	"Peiro Signado"	146	"Ly-5689(SacA-13451)"	3.32891	43.3083	"EN"	-5801	146	"Csa"
"neonet"	"Pendimoun"	147	"Gif-A101334"	7.505944	43.812212	"EN"	-5689	147	NA
"neonet"	"Pendimoun"	148	"LTL-15941A"	7.505944	43.812212	"EN"	-5689	148	NA
"neonet"	"Pont de Roque-Haute"	151	"Ly-7625"	3.36003	43.2927	"EN"	-5970	151	"Csa"
"neonet"	"Pza. Vila Madrid"	154	"Beta-18271"	2.172524	41.384281	"EN"	-5410	154	NA
"neonet"	"Renaghju"	155	"Ly-8327"	8.92148	41.52652	"EN"	-5485	155	NA
"neonet"	"Revilla del Campo"	156	"KIA-13940"	-2.549566	41.17593	"EN"	-5521	156	"Csa"
"neonetatl"	"Ribeira de Alcantarilha"	157	"Wk-6851"	-8.3447	37.1271	"EN"	-5503	157	"Csa"
"neonet"	"Roc du Dourgne"	159	"MC-1104"	2.0879	42.7607	"EN"	-5422	159	"Cfb"
"neonet"	"Ronze"	161	"Ly-6083"	4.404267	44.318435	"EN"	-5555	161	"Cfa"
"agrichange"	"Sant Llorenc"	163	"Beta-311606"	1.831924	41.252455	"EN"	-5659	163	"Csa"
"neonet"	"Sant Pau del Camp"	164	"Beta-407495"	2.169751	41.375989	"EN"	-5533	164	NA
"brami15"	"Senhora da Alegria"	165	"BM-1157"	-8.2346	40.0751	"EN"	-5795	165	"Csa"
"neonet"	"Su Carroppu"	167	"Ly-3012"	8.549996	39.196373	"EN"	-5405	167	"Csa"
"neonet"	"Su Coloru"	168	"Beta-167931"	8.712183	40.661832	"EN"	-5720	168	"Csa"
"neonet"	"Tumul del Padro"	171	"ICEN-873"	-3.11	42.63	"EN"	-5502	171	"Csb"
"neonetatl"	"Valada do Mato"	173	"GrA-18298"	-7.9902777	38.60806	"EN"	-5485	173	"Csa"
"neonetatl"	"Vale Marim I"	176	"Beta-417015"	-8.806815	37.9302	"EN"	-5908	176	"Csa"
"neonetatl"	"Vale Pincel I"	177	"Beta-164664"	-8.844087	37.94075	"EN"	-5652	177	"Csa"
"neonetatl"	"Vidigal"	179	"Ly-4695"	-8.7799	37.8263	"EN"	-5568	179	"Csa"
"neonet"	"Vinya en Pau"	181	"CNA-2488.1.1"	1.699466	41.344905	"EN"	-5386	181	"Csa"
