"sourcedb"	"site"	"idf"	"labcode"	"lon"	"lat"	"period"	"median"	"ID"	"code"
"calpal"	"Abu Gosh"	1	"RT-2453"	35.1083	31.8053	"EN"	-8064	1	"Csa"
"calpal"	"Abu Hureyra"	2	"BM-1122"	38.4	35.87	"EN"	-8644	2	"BSk"
"calpal"	"Abu Suwwan"	3	"AA-90095"	35.89	32.27	"EN"	-8263	3	"Csa"
"calpal"	"Ahihud"	4	"RTD-8257"	35.1721	32.9078	"EN"	-8298	4	"Csa"
"calpal"	"Ain Ghazal"	5	"GrN-12965"	35.93	31.93	"EN"	-8260	5	"BSk"
"calpal"	"Ain el-Kerkh"	6	"GrA-22277"	36.46	35.82	"EN"	-8608	6	"Csa"
"calpal"	"Ais Yiorkis"	7	"Beta-213417"	32.56	34.93	"EN"	-7739	7	"Csa"
"calpal"	"Akarçay Tepe"	8	"Beta-138584"	38.0167	36.917	"EN"	-7778	8	"Csa"
"brami15"	"Asikli"	11	"GrN-28617"	34.2295	38.3497	"EN"	-8218	11	"BSk"
"calpal"	"Asprokremnos"	12	"Hd-27217"	33.48	35.07	"EN"	-8907	12	"Csa"
"calpal"	"Aswad"	13	"GrA-25915"	36.53	33.41	"EN"	-8538	13	"BSk"
"calpal"	"Atlit-Yam"	14	"RT-2496, 2497"	34.9	32.54	"EN"	-7169	14	NA
"calpal"	"Azraq 31"	15	"OxA-2412"	36.81	31.83	"EN"	-7309	15	"BWk"
"calpal"	"Bouqraz"	18	"GrN-8262"	40.39	35.02	"EN"	-7460	18	"BWh"
"bda"	"Cafer"	19	"LY-4437"	38.75	38.4167	"EN"	-8097	19	"BSk"
"brami15"	"Can Hasan"	20	"HU-11"	33.3667	37.25	"EN"	-7603	20	"BSk"
"brami15"	"Catal"	21	"PL-980525-A"	32.81	37.65	"EN"	-7431	21	"BSk"
"calpal"	"Cayönü"	22	"GrN-8103"	39.72	38.21	"EN"	-10359	22	"BSk"
"brami15"	"Cyclops Cave"	24	"DEM-597"	24.15703	39.371388	"EN"	-8500	24	NA
"calpal"	"Dhra"	27	"AA-38142"	35.58	31.27	"EN"	-9630	27	"BSk"
"calpal"	"Dhuweila"	28	"OxA-1637"	37.25	32.03	"EN"	-7386	28	"BWk"
"calpal"	"Dja'de"	29	"Ly-12110"	38.1983	36.6638	"EN"	-8976	29	"Csa"
"brami15"	"Franchthi"	34	"P-2103"	23.13503	37.4183	"EN"	-8538	34	NA
"calpal"	"Gesher"	35	"Pta-4553"	35.51	32.65	"EN"	-9586	35	"Csa"
"calpal"	"Ghwair"	36	"Hd-17219"	35.5061	30.623	"EN"	-7907	36	"BSk"
"calpal"	"Gilgal"	37	"Pta-4588"	35.43	32	"EN"	-9412	37	"Csa"
"calpal"	"Gritille"	38	"Beta-13216"	38.57	37.55	"EN"	-7660	38	"BSk"
"calpal"	"Gusir"	39	"KIA-44178"	41.8229	37.7265	"EN"	-9486	39	"BSk"
"calpal"	"Göbekli Tepe"	40	"UGAMS-10796"	38.92	37.22	"EN"	-9503	40	"Csa"
"calpal"	"Hallan Cemi"	43	"OxA-12329"	41.25	38.23	"EN"	-9695	43	"BSk"
"calpal"	"Halula"	44	"Beta-90618"	38.18	36.42	"EN"	-7910	44	"BSk"
"calpal"	"Hasankeyf"	45	"MTC-16070"	41.43	37.73	"EN"	-9559	45	"BSk"
"calpal"	"Hayaz"	46	"GrN-12510"	38.33	37.48	"EN"	-7353	46	"Csa"
"calpal"	"Hemar"	47	"Pta-3625"	35.18	31.17	"EN"	-7980	47	"BSh"
"calpal"	"Horvat Galil"	48	"RT-1397"	35.32	32.96	"EN"	-8594	48	"Csa"
"calpal"	"Iraq ed-Dubb"	49	"OxA-17077"	35.7158	32.3908	"EN"	-9511	49	"Csa"
"calpal"	"Jerf el Ahmar"	50	"Ly-10651"	38.2	36.39	"EN"	-9465	50	"BSk"
"calpal"	"Jericho"	51	"P-379"	35.47	31.86	"EN"	-9038	51	"Csa"
"calpal"	"Jilat 26"	52	"OxA-2407"	36.41	31.5	"EN"	-7791	52	"BSk"
"calpal"	"Jilat 7"	53	"OxA-2413"	36.41	31.51	"EN"	-7441	53	"BSk"
"brami15"	"Kaletepe"	55	"GifA-100396"	34.56	38.28	"EN"	-8236	55	"BSk"
"calpal"	"Kharaysin"	56	"CNA-3465"	35.979	32.276	"EN"	-8899	56	"Csa"
"calpal"	"Khirbet Hammam"	57	"GrN-26147"	35.6658	30.9842	"EN"	-7446	57	"BSk"
"calpal"	"Kissonerga-Mylouthkia"	59	"OxA-7460"	32.4	34.83	"EN"	-8562	59	NA
"bda"	"Klimonas"	60	"Muse-310 (SacA-34272)"	33.1298	34.7156	"EN"	-9163	60	"Csa"
"calpal"	"Körtik"	63	"ETH-45335"	40.9838	37.8144	"EN"	-10216	63	"BSk"
"brami15"	"Maroulas"	65	"DEM-?"	24.4334	37.4167	"EN"	-8975	65	NA
"calpal"	"Mezad Mazal"	68	"B-2737"	35.32	30.93	"EN"	-7535	68	"BWh"
"calpal"	"Motza"	69	"RTT-4750"	35.1566	31.7936	"EN"	-8568	69	"Csa"
"calpal"	"Mureybet"	70	"P-1215"	38.1	36.07	"EN"	-9567	70	"BSk"
"brami15"	"Musular"	71	"GrN-25901"	34.22	38.34	"EN"	-7565	71	"BSk"
"calpal"	"Nahal Efe"	72	"RTD-8530"	35.1505	31.0785	"EN"	-7854	72	"BSh"
"calpal"	"Nesher-Ramla quarr"	73	"RTD-8876"	34.8666	31.9333	"EN"	-8530	73	"Csa"
"calpal"	"Netiv Hagdud"	74	"Pta-4557"	35.38	31.98	"EN"	-9245	74	"Csa"
"bda"	"Nevali Çori"	75	"Hd-16782-351"	38.6502	37.5836	"EN"	-8458	75	"BSk"
"calpal"	"Pinarbasi A"	76	"OxA-5499"	33.03	37.48	"EN"	-8260	76	"BSk"
"calpal"	"Qaramel"	78	"Gd-30062"	37.275	36.3778	"EN"	-10270	78	"Csa"
"calpal"	"Qarassa"	79	"Beta-290929"	36.6066	32.8317	"EN"	-8598	79	"BSk"
"calpal"	"Ramad"	80	"GrN-4426"	36.1	33.41	"EN"	-7227	80	"Csa"
"calpal"	"Ras Shamra"	81	"P-459"	35.73	35.57	"EN"	-7145	81	NA
"calpal"	"Sabha"	82	"TO-3987"	36.4982803037916	32.3319711934872	"EN"	-7496	82	"BSk"
"calpal"	"Sabi Abyad II"	83	"GrN-21319"	39.1	36.52	"EN"	-7560	83	"Csa"
"calpal"	"Seker al-Aheimar"	85	"MTC-04347"	40.29	36.66	"EN"	-7031	85	"BSk"
"calpal"	"Shillourokambos"	86	"Ly-290"	33.15639	34.75278	"EN"	-8550	86	"Csa"
"brami15"	"Suberde"	88	"OS-62227"	31.93	37.35	"EN"	-7309	88	"Dsa"
"calpal"	"Tell 'Abr"	90	"Ly-5235"	38.0864	36.6819	"EN"	-9239	90	"Csa"
"calpal"	"Tell el-Sinn"	91	"GrN-9833"	40.35	35.27	"EN"	-7662	91	"BWh"
"calpal"	"WF 16"	94	"Beta-192521"	35.5	30.62	"EN"	-10596	94	"BSk"
"calpal"	"Wadi Shu'eib"	95	"Beta-35081"	35.69	31.94	"EN"	-7655	95	"BSk"
"calpal"	"Yiftahel"	97	"Pta-4242"	35.18	32.71	"EN"	-8008	97	"Csa"
"calpal"	"Zahrat adh-Drah 2"	99	"Wk-9633"	35.5663	31.2554	"EN"	-9012	99	"BSk"
